[{"id":"P_1","nombre":"Avenida Ibarren Borges",
"latitud":"10.2829530000","longitud":"-68.0191960000","rutas":["R_2"]},
{"id":"P_10","nombre":"Maximo Romero",
"latitud":"10.2031370000","longitud":"-68.0689900000",
"rutas":["R_2"]},
{"id":"P_11","nombre":"Parada 11","latitud":"12.6778000000","longitud":"-68.0108330000","rutas":["R_2"]},{"id":"P_12","nombre":"Parada 12","latitud":"10.2829530000","longitud":"-68.0191960000","rutas":["R_2"]},{"id":"P_13","nombre":"Parada 13","latitud":"10.2829530000","longitud":"-68.0187890000","rutas":["R_2"]},{"id":"P_14","nombre":"Parada 14","latitud":"10.2829530000","longitud":"-68.0167850000","rutas":["R_2"]},{"id":"P_15","nombre":"Parada 15","latitud":"10.2796410000","longitud":"-68.0108330000","rutas":["R_2"]},{"id":"P_16","nombre":"Parada 16","latitud":"12.6778000000","longitud":"-68.0177710000","rutas":["R_2"]},{"id":"P_17","nombre":"Parada 17","latitud":"10.2796410000","longitud":"-68.0177710000","rutas":["R_2"]},{"id":"P_18","nombre":"Parada 18","latitud":"10.2829530000","longitud":"-68.0191960000","rutas":["R_2"]},{"id":"P_19","nombre":"Parada 19","latitud":"10.2829530000","longitud":"-68.0187890000","rutas":["R_2"]},{"id":"P_2","nombre":"Av Henry Ford","latitud":"10.2796410000","longitud":"-68.0177710000","rutas":["R_2"]},{"id":"P_20","nombre":"Parada 20","latitud":"12.6778000000","longitud":"-68.0108330000","rutas":["R_2"]},{"id":"P_21","nombre":"Parada 21","latitud":"10.2829530000","longitud":"-68.0191960000","rutas":["R_2"]},{"id":"P_22","nombre":"Parada 22","latitud":"10.2796410000","longitud":"-68.0187890000","rutas":["R_2"]},{"id":"P_23","nombre":"Parada 23","latitud":"10.2829530000","longitud":"-68.0108330000","rutas":["R_2"]},{"id":"P_24","nombre":"Parada 24","latitud":"12.6778000000","longitud":"-68.0108330000","rutas":["R_2"]},{"id":"P_25","nombre":"Parada 25","latitud":"10.2829530000","longitud":"-68.0187890000","rutas":["R_2"]},{"id":"P_26","nombre":"Parada 26","latitud":"10.2829530000","longitud":"-68.0108330000","rutas":["R_2"]},{"id":"P_27","nombre":"Parada 27","latitud":"10.2829530000","longitud":"-68.0191960000","rutas":["R_1"]},{"id":"P_28","nombre":"Parada 28","latitud":"12.6778000000","longitud":"-68.0177710000","rutas":["R_1"]},{"id":"P_29","nombre":"Parada 29","latitud":"10.2829530000","longitud":"-68.0187890000","rutas":["R_1"]},{"id":"P_3","nombre":"Paseo Las Industrias","latitud":"10.2739340000","longitud":"-68.0167850000","rutas":["R_2"]},{"id":"P_30","nombre":"Parada 30","latitud":"10.2829530000","longitud":"-68.0108330000","rutas":["R_1"]},{"id":"P_31","nombre":"Parada 31","latitud":"10.2829530000","longitud":"-68.0187890000","rutas":["R_1"]},{"id":"P_32","nombre":"Parada 32","latitud":"10.2829530000","longitud":"-68.0191960000","rutas":["R_1"]},{"id":"P_33","nombre":"Parada 33","latitud":"10.2829530000","longitud":"-68.0108330000","rutas":["R_1"]},{"id":"P_34","nombre":"Parada 34","latitud":"10.2829530000","longitud":"-68.0191960000","rutas":["R_1"]},{"id":"P_35","nombre":"Parada 35","latitud":"10.2829530000","longitud":"-68.0191960000","rutas":["R_1"]},{"id":"P_36","nombre":"Parada 36","latitud":"10.2829530000","longitud":"-68.0191960000","rutas":["R_1"]},{"id":"P_37","nombre":"Parada 37","latitud":"10.2829530000","longitud":"-68.0187890000","rutas":["R_1"]},{"id":"P_38","nombre":"Parada 138","latitud":"10.2829530000","longitud":"-68.0108330000","rutas":["R_1"]},{"id":"P_39","nombre":"Parada 39","latitud":"10.2829530000","longitud":"-68.0191960000","rutas":["R_1"]},{"id":"P_4","nombre":"Isabelica","latitud":"10.2666740000","longitud":"-68.0167850000","rutas":["R_2"]},{"id":"P_40","nombre":"Parada 40","latitud":"10.2829530000","longitud":"-68.0108330000","rutas":["R_1"]},{"id":"P_41","nombre":"Parada 41","latitud":"10.2829530000","longitud":"-68.0191960000","rutas":["R_1","R_3"]},{"id":"P_42","nombre":"Parada 42","latitud":"10.2829530000","longitud":"-68.0191960000","rutas":["R_1"]},{"id":"P_43","nombre":"Parada 43","latitud":"10.2829530000","longitud":"-68.0108330000","rutas":["R_1"]},{"id":"P_44","nombre":"Parada 44","latitud":"10.2829530000","longitud":"-68.0108330000","rutas":["R_1"]},{"id":"P_45","nombre":"Parada 45","latitud":"10.2829530000","longitud":"-68.0108330000","rutas":["R_1"]},{"id":"P_46","nombre":"Parada 46","latitud":"10.2829530000","longitud":"-68.0191960000","rutas":["R_1"]},{"id":"P_47","nombre":"Parada 47","latitud":"10.2829530000","longitud":"-68.0191960000","rutas":["R_1"]},{"id":"P_48","nombre":"Parada 48","latitud":"10.2829530000","longitud":"-68.0177710000","rutas":["R_1"]},{"id":"P_49","nombre":"Parada 49","latitud":"12.6778000000","longitud":"-68.0108330000","rutas":["R_1"]},{"id":"P_5","nombre":"Petro Casa","latitud":"10.2595990000","longitud":"-68.0156820000","rutas":["R_2"]},{"id":"P_50","nombre":"Parada 50","latitud":"12.6778000000","longitud":"-68.0191960000","rutas":["R_1"]},{"id":"P_51","nombre":"Parada 51","latitud":"10.2829530000","longitud":"-68.0191960000","rutas":["R_1"]},{"id":"P_52","nombre":"Parada 52","latitud":"10.2829530000","longitud":"-68.0108330000","rutas":["R_1"]},{"id":"P_53","nombre":"Parada 53","latitud":"10.2829530000","longitud":"-68.0187890000","rutas":["R_3"]},{"id":"P_54","nombre":"Parada 54","latitud":"10.2829530000","longitud":"-68.0191960000","rutas":["R_3"]},{"id":"P_55","nombre":"Parada 55","latitud":"10.2829530000","longitud":"-68.0191960000","rutas":["R_3"]},{"id":"P_56","nombre":"Parada 56","latitud":"12.6778000000","longitud":"-68.0187890000","rutas":["R_3"]},{"id":"P_57","nombre":"Parada 57","latitud":"10.2829530000","longitud":"-68.0108330000","rutas":["R_3"]},{"id":"P_58","nombre":"Parada 58","latitud":"10.2829530000","longitud":"-68.0108330000","rutas":["R_3"]},{"id":"P_59","nombre":"Parada 59","latitud":"10.2829530000","longitud":"-68.0108330000","rutas":["R_3"]},{"id":"P_6","nombre":"Boca de rio","latitud":"10.2507190000","longitud":"-68.0142840000","rutas":["R_2"]},{"id":"P_60","nombre":"Parada 60","latitud":"10.2829530000","longitud":"-68.0108330000","rutas":["R_3"]},{"id":"P_61","nombre":"Parada 61","latitud":"10.2829530000","longitud":"-68.0191960000","rutas":["R_3"]},{"id":"P_62","nombre":"Parada 62","latitud":"10.2829530000","longitud":"-68.0108330000","rutas":["R_3"]},{"id":"P_63","nombre":"Parada 63","latitud":"10.2829530000","longitud":"-68.0108330000","rutas":["R_3"]},{"id":"P_64","nombre":"Parada 64","latitud":"10.2829530000","longitud":"-68.0108330000","rutas":["R_3"]},{"id":"P_65","nombre":"Parada 65","latitud":"10.2829530000","longitud":"-68.0108330000","rutas":["R_3"]},{"id":"P_66","nombre":"Parada 66","latitud":"10.2829530000","longitud":"-68.0187890000","rutas":["R_3"]},{"id":"P_67","nombre":"Parada 67","latitud":"10.2829530000","longitud":"-68.0191960000","rutas":["R_3"]},{"id":"P_7","nombre":"La Blanquera","latitud":"10.2450750000","longitud":"-68.0134330000","rutas":["R_2"]},{"id":"P_8","nombre":"Plaza de toros","latitud":"10.2283050000","longitud":"-68.0108330000","rutas":["R_2"]},{"id":"P_9","nombre":"Parque recreacional sur","latitud":"10.2207180000","longitud":"-68.0096850000","rutas":["R_2"]}]
